     2.11           OBSERVATION DATA    M (MIXED)           RINEX VERSION / TYPE
teqc  2018Jun8      root                20190613 05:21:48UTCPGM / RUN BY / DATE
Linux 2.4.21-27.ELsmp|Opteron|gcc|Linux 64|=+               COMMENT
teqc  2019Feb25     NOAA/NOS/NGS/CORS   20190613 03:57:10UTCCOMMENT
   0.000      (antenna height)                              COMMENT
 +39.72152587 (latitude)                                    COMMENT
-105.19287100 (longitude)                                   COMMENT
1819.921      (elevation)                                   COMMENT
BIT 2 OF LLI FLAGS DATA COLLECTED UNDER A/S CONDITION       COMMENT
 SNR is mapped to RINEX snr flag value [0-9]                COMMENT
  L1 & L2: min(max(int(snr_dBHz/6), 0), 9)                  COMMENT
teqc.e edited: all SBAS satellites excluded                 COMMENT
teqc.e edited: all QZSS satellites excluded                 COMMENT
CTMC                                                        MARKER NAME
1                                                           MARKER NUMBER
Steven Hagemann     CODOT                                   OBSERVER / AGENCY
4626K01856          TRIMBLE NETR5       48.01               REC # / TYPE / VERS
30167871            TRM55971.00     NONE                    ANT # / TYPE
 -1287787.7680 -4742178.3640  4055414.6140                  APPROX POSITION XYZ
        0.0000        0.0000        0.0000                  ANTENNA: DELTA H/E/N
     1     1                                                WAVELENGTH FACT L1/2
    11    L1    L2    L5    C1    P1    C2    P2    C5    S1# / TYPES OF OBSERV
          S2    S5                                          # / TYPES OF OBSERV
     5.0000                                                 INTERVAL
teqc.w windowed: start @ 2019 Jun 12 00:00:00.000           COMMENT
teqc.w windowed:  end  @ 2019 Jun 12 02:00:00.000           COMMENT
  2019     6    12     0     0    0.0000000     GPS         TIME OF FIRST OBS
    18                                                      LEAP SECONDS
                                                            END OF HEADER
 19  6 12  0  0  0.0000000  0 17G02R05G15G13G29R06R11R19G26R12G25G12
                                R04R20G05G21R21
 121885137.561 7  94975451.13345                  23193955.602
                  23193957.898                          44.300          30.400

 107267502.134 8  83430299.953 7                  20066603.656    20066603.750
                  20066608.000                          51.300          46.700

 125956641.731 7  98148067.270 6                  23968749.289
  23968754.109    23968754.457                          46.800          41.600

 124067177.778 7  96675739.90043                  23609191.148
                  23609196.375                          42.600          20.100

 106885395.088 8  83287280.010 8                  20339586.383
  20339590.266    20339590.379                          50.300          50.100

 109542491.909 7                                  20528217.469    20528215.098
                                                        43.400

 121960911.637 7  94858542.253 6                  22823327.047    22823326.316
                  22823332.215                          44.100          41.200

 130593152.606 4 101572496.691 4                  24413015.211    24413016.242
                  24413022.957                          29.400          29.900

 128677101.366 6 100267926.073 6                  24486444.211
  24486449.559    24486449.613                          41.100          38.000

 123557818.980 6                                  23130287.734    23130287.828
                                                        40.300

 118540615.311 7  92369351.155 7                  22557524.055
  22557531.922    22557531.215                          46.300          45.500

 126366635.639 7  98467539.827 6                  24046770.555
  24046775.141    24046775.547                          42.600          37.200

 125064136.002 7  97272173.294 6                  23354848.414    23354847.566
                  23354852.055                          42.900          38.000

 109577147.420 7  85226757.095 7                  20491476.750    20491474.965
                  20491481.094                          44.600          47.300

 109787013.516 8  85548358.165 7                  20891758.352
  20891762.820    20891762.582                          49.500          47.500

 124978806.489 6  97386077.47144                  23782663.242
                  23782667.883                          40.200          26.300

 109577036.994 8  85226464.957 7                  20477043.656    20477042.105
                  20477047.180                          49.500          45.200

 19  6 12  0  0  5.0000000  0 17G02R05G15G13G29R06R11R19G26R12G25G12
                                R04R20G05G21R21
 121895235.904 7  94983319.96344                  23195877.273
                  23195879.629                          43.900          29.400

 107273301.491 8  83434810.552 7                  20067688.367    20067688.930
                  20067693.063                          50.900          46.600

 125938965.724 7  98134293.769 7                  23965385.156
  23965390.621    23965391.027                          46.900          42.000

 124053449.296 7  96665042.41243                  23606579.492
                  23606584.309                          43.000          20.400

 106879894.942 8  83282994.187 8                  20338539.844
  20338543.785    20338543.840                          50.000          50.300

 109526057.454 7                                  20525137.219    20525135.199
                                                        43.000

 121973070.705 7  94867999.271 6                  22825602.977    22825602.129
                  22825607.320                          44.600          40.900

 130608093.48114 101584117.376 4                  24415809.289    24415808.207
                  24415815.629                          28.900          29.500

 128666190.172 6 100259423.833 6                  24484366.117
  24484373.281    24484373.570                          40.300          37.900

 123558228.322 6                                  23130365.805    23130364.840
                                                        39.800

 118554192.001 7  92379930.388 7                  22560107.969
  22560114.898    22560114.543                          46.300          45.200

 126385423.168 7  98482179.460 6                  24050345.977
  24050350.621    24050350.383                          42.900          37.100

 125083770.202 7  97287444.332 6                  23358514.734    23358514.238
                  23358519.430                          42.200          38.100

 109583016.646 7  85231322.046 7                  20492573.523    20492572.207
                  20492578.574                          44.500          46.700

 109796291.671 8  85555587.893 7                  20893523.922
  20893528.215    20893528.152                          49.100          47.600

 124968641.428 6  97378156.66144                  23780728.586
                  23780733.754                          41.100          24.300

 109566943.872 8  85218614.756 7                  20475158.336    20475156.785
                  20475161.156                          50.000          45.300

 19  6 12  0  0 10.0000000  0 16G02R05G15G13G29R06R11G26R12G25G12R04
                                R20G05G21R21
 121905336.570 7  94991190.61644                  23197799.492
                  23197801.613                          43.600          29.600

 107279122.572 8  83439338.065 7                  20068776.758    20068776.734
                  20068781.453                          51.000          46.700

 125921290.836 7  98120521.149 6                  23962022.266
  23962026.734    23962027.492                          47.400          41.000

 124039727.065 7  96654349.77643                  23603967.727
                  23603972.426                          42.700          19.300

 106874406.374 8  83278717.383 8                  20337495.133
  20337499.602    20337499.773                          49.600          49.800

 109509637.925 7                                  20522058.789    20522057.590
                                                        43.400

 121985243.542 7  94877467.044 6                  22827879.773    22827879.984
                  22827885.176                          44.800          40.400

 128655290.867 6 100250930.878 6                  24482292.844
  24482298.719    24482299.066                          41.400          38.000

 123558658.128 6                                  23130445.289    23130445.148
                                                        40.800

 118567778.422 7  92390517.205 7                  22562693.344
  22562700.566    22562700.680                          46.100          45.500

 126404211.636 7  98496819.801 6                  24053922.125
  24053925.246    24053925.301                          43.600          37.700

 125103412.651 7  97302721.762 6                  23362183.977    23362181.723
                  23362187.148                          42.300          38.400

 109588894.966 7  85235894.091 7                  20493673.484    20493671.816
                  20493678.535                          44.600          46.800

 109805582.297 8  85562827.343 7                  20895291.742
  20895295.625    20895295.738                          49.800          47.600

 124958478.767 6  97370237.72044                  23778795.266
                  23778799.496                          41.700          24.700

 109556856.215 8  85210768.797 7                  20473273.578    20473272.262
                  20473276.398                          49.800          45.300

 19  6 12  0  0 15.0000000  0 17G02R05G15G13G29R06R11R19G26R12G25G12
                                R04R20G05G21R21
 121915439.522 7  94999063.04544                  23199722.227
                  23199723.586                          43.900          29.400

 107284965.504 8  83443882.572 7                  20069870.117    20069869.977
                  20069874.461                          50.700          46.600

 125903617.075 7  98106749.376 6                  23958659.242
  23958663.594    23958663.941                          47.300          41.100

 124026011.081 6  96643662.00843                  23601357.039
                  23601362.676                          41.800          18.600

 106868929.325 8  83274449.550 8                  20336453.141
  20336457.082    20336457.430                          49.800          50.100

 109493233.112 7                                  20518984.711    20518983.395
                                                        43.400

 121997430.083 7  94886945.462 6                  22830161.383    22830160.535
                  22830165.375                          44.800          40.400

 130637986.20514 101607367.24514                  24421399.219    24421397.551
                  24421404.152                          28.900          28.300

 128644403.430 6 100242447.168 6                  24480220.953
  24480227.063    24480227.820                          39.000          38.600

 123559108.361 6                                  23130530.070    23130529.340
                                                        40.900

 118581374.516 7  92401111.564 7                  22565280.391
  22565286.910    22565287.141                          46.400          44.300

 126423000.920 7  98511460.797 6                  24057497.672
  24057502.199    24057501.609                          42.700          38.800

 125123063.386 6  97318005.664 6                  23365852.234    23365850.449
                  23365856.109                          41.800          38.000

 109594782.287 7  85240473.114 7                  20494773.664    20494772.699
                  20494779.184                          44.500          46.700

 109814885.464 8  85570076.564 7                  20897062.188
  20897065.777    20897065.832                          49.300          47.500

 124948318.482 6  97362320.61544                  23776861.773
                  23776866.355                          41.400          24.500

 109546773.947 8  85202927.044 7                  20471389.727    20471387.707
                  20471392.313                          49.600          44.900

 19  6 12  0  0 20.0000000  0 17G02R05G15G13G29R06R11R19G26R12G25G12
                                R04R20G05G21R21
 121925544.860 7  95006937.33244                  23201644.414
                  23201646.008                          43.300          28.600

 107290830.320 8  83448444.086 7                  20070967.563    20070967.656
                  20070971.789                          50.800          46.500

 125885944.476 7  98092978.547 6                  23955296.188
  23955300.656    23955300.887                          47.000          41.100

 124012301.474 7  96632979.17543                  23598748.469
                  23598753.520                          42.500          19.600

 106863463.957 8  83270190.825 8                  20335412.672
  20335416.320    20335416.551                          49.700          49.300

 109476843.440 7                                  20515913.016    20515911.934
                                                        43.300

 122009630.400 7  94896434.605 6                  22832442.938    22832443.383
                  22832449.395                          43.900          40.700

 130652938.175 4 101618996.556 5                  24424191.922    24424192.250
                  24424198.965                          28.000          30.100

 128633528.050 6 100233972.850 6                  24478150.750
  24478157.621    24478157.852                          39.400          39.000

 123559578.854 6                                  23130616.828    23130617.156
                                                        41.000

 118594980.358 7  92411713.523 7                  22567869.148
  22567876.430    22567876.367                          46.400          44.800

 126441791.180 7  98526102.529 6                  24061072.531
  24061077.527    24061077.816                          42.900          37.600

 125142722.407 6  97333296.024 6                  23369522.000    23369522.211
                  23369527.988                          41.700          37.900

 109600678.745 7  85245059.237 7                  20495876.844    20495876.113
                  20495882.480                          44.300          46.900

 109824201.213 8  85577335.589 7                  20898834.984
  20898838.691    20898838.863                          49.400          47.200

 124938160.696 6  97354405.47944                  23774928.695
                  23774932.926                          41.700          25.100

 109536697.244 8  85195089.612 7                  20469506.172    20469504.621
                  20469509.461                          50.000          45.300

 19  6 12  0  0 25.0000000  0 16G02R05G15G13G29R06R11G26R12G25G12R04
                                R20G05G21R21
 121935652.503 7  95014813.40944                  23203568.625
                  23203569.809                          43.600          29.900

 107296716.954 8  83453022.590 7                  20072069.031    20072069.008
                  20072073.023                          50.900          45.900

 125868273.055 7  98079208.620 6                  23951933.984
  23951937.691    23951937.980                          47.900          40.300

 123998598.147 7  96622301.28743                  23596141.867
                  23596145.453                          42.800          19.300

 106858010.164 8  83265941.112 8                  20334374.727
  20334379.137    20334379.426                          49.100          49.500

 109460468.610 7                                  20512845.414    20512843.512
                                                        43.300

 122021844.548 7  94905934.479 6                  22834728.977    22834728.953
                  22834734.848                          44.600          39.800

 128622664.566 6 100225507.802 6                  24476083.344
  24476089.629    24476090.152                          39.200          38.300

 123560069.828 6                                  23130710.227    23130708.559
                                                        40.500

 118608595.877 7  92422323.025 7                  22570459.797
  22570466.785    22570466.430                          45.600          44.400

 126460582.282 6  98540744.946 6                  24064648.117
  24064653.113    24064653.402                          41.800          37.700

 125162389.602 6  97348592.705 6                  23373195.320    23373195.531
                  23373200.371                          41.800          37.300

 109606584.344 7  85249652.485 7                  20496979.766    20496979.625
                  20496986.340                          44.300          46.700

 109833529.363 8  85584604.275 7                  20900609.984
  20900614.219    20900614.332                          48.800          47.100

 124928005.260 6  97346492.16944                  23772997.133
                  23773000.426                          41.600          25.500

 109526626.064 8  85187256.452 7                  20467623.664    20467622.230
                  20467626.953                          49.200          45.200

 19  6 12  0  0 30.0000000  0 17G02R05G15G13G29R06R11R19G26R12G25G12
                                R04R20G05G21R21
 121945762.476 7  95022691.32644                  23205492.484
                  23205494.137                          43.700          29.000

 107302625.260 8  83457617.936 7                  20073173.242    20073173.453
                  20073178.059                          50.300          47.100

 125850602.817 7  98065439.605 6                  23948571.602
  23948575.250    23948575.422                          47.800          41.300

 123984901.155 7  96611628.32043                  23593535.281
                  23593539.160                          43.200          19.600

 106852567.957 8  83261700.434 8                  20333339.648
  20333343.414    20333343.820                          49.900          49.500

 109444108.719 7                                  20509779.172    20509777.973
                                                        43.600

 122034072.325 7  94915444.989 6                  22837017.125    22837016.395
                  22837023.230                          44.000          40.700

 130682853.24114 101642263.76514                  24429787.117    24429785.918
                  24429791.344                          29.900          28.900

 128611813.079 6 100217052.087 6                  24474019.219
  24474025.680    24474025.441                          39.400          39.500

 123560581.291 6                                  23130804.320    23130804.180
                                                        40.200

 118622221.070 7  92432940.068 7                  22573052.047
  22573059.621    22573059.559                          45.700          44.300

 126479374.283 7  98555388.044 6                  24068224.266
  24068228.676    24068229.023                          43.000          36.700

 125182064.839 6  97363895.677 6                  23376869.828    23376869.688
                  23376874.645                          41.800          37.900

 109612498.943 7  85254252.710 7                  20498086.844    20498086.230
                  20498092.832                          44.200          46.900

 109842869.987 8  85591882.679 7                  20902387.227
  20902391.520    20902391.633                          49.100          47.300

 124917852.283 7  97338580.75244                  23771065.125
                  23771068.125                          42.200          26.500

 109516560.344 8  85179427.571 7                  20465743.203    20465741.535
                  20465746.141                          49.700          45.300

 19  6 12  0  0 35.0000000  0 17G02R05G15G13G29R06R11R19G26R12G25G12
                                R04R20G05G21R21
 121955874.728 7  95030570.99544                  23207415.984
                  23207418.223                          44.700          29.900

 107308555.305 8  83462230.189 7                  20074282.563    20074283.008
                  20074287.496                          50.900          46.700

 125832933.662 7  98051671.456 6                  23945208.211
  23945212.855    23945213.145                          47.200          41.400

 123971210.401 7  96600960.16843                  23590929.898
                  23590933.719                          43.900          19.600

 106847137.323 8  83257468.767 8                  20332305.883
  20332310.293    20332310.523                          49.700          49.500

 109427763.787 7                                  20506716.734    20506714.363
                                                        43.600

 122046313.802 7  94924966.119 6                  22839307.992    22839307.613
                  22839314.332                          44.500          40.400

 130697816.150 5 101653901.659 4                  24432583.594    24432582.863
                  24432588.289                          30.700          28.100

 128600973.463 6 100208605.649 6                  24471956.109
  24471962.629    24471963.270                          39.900          39.200

 123561112.997 6                                  23130904.813    23130904.199
                                                        40.900

 118635855.852 7  92443564.571 7                  22575648.063
  22575654.055    22575653.992                          46.300          44.200

 126498167.141 7  98570031.833 6                  24071800.758
  24071804.465    24071804.637                          43.100          36.100

 125201748.266 7  97379205.009 6                  23380546.234    23380545.855
                  23380550.578                          42.400          37.800

 109618422.556 7  85258859.977 7                  20499194.617    20499193.301
                  20499199.785                          44.300          46.500

 109852222.929 8  85599170.684 7                  20904166.523
  20904171.402    20904171.281                          49.500          47.500

 124907701.615 7  97330671.14544                  23769134.227
                  23769136.230                          42.400          26.400

 109506500.048 8  85171602.887 7                  20463862.531    20463861.215
                  20463866.055                          50.000          45.500

 19  6 12  0  0 40.0000000  0 17G02R05G15G13G29R06R11R19G26R12G25G12
                                R04R20G05G21R21
 121965989.314 7  95038452.48045                  23209341.258
                  23209343.203                          43.700          30.000

 107314507.128 8  83466859.388 7                  20075396.672    20075395.941
                  20075400.547                          50.500          47.400

 125815265.791 7  98037904.293 6                  23941845.828
  23941850.180    23941850.703                          47.100          40.200

 123957526.020 7  96590297.06643                  23588324.844
                  23588329.191                          42.500          20.100

 106841718.333 8  83253246.181 8                  20331274.367
  20331279.012    20331279.066                          49.400          50.300

 109411433.702 7                                  20503656.742    20503654.605
                                                        43.400

 122058568.975 7  94934497.905 6                  22841600.430    22841600.168
                  22841607.473                          44.000          40.400

 130712782.892 4 101665542.427 4                  24435380.375    24435379.059
                  24435385.660                          29.600          28.300

 128590145.886 6 100200168.593 6                  24469894.891
  24469901.820    24469902.285                          39.400          39.200

 123561665.074 6                                  23131007.156    23131007.602
                                                        40.900

 118649500.308 7  92454196.610 7                  22578244.125
  22578250.645    22578250.699                          45.900          44.500

 126516960.828 7  98584676.266 6                  24075376.750
  24075380.750    24075380.863                          43.000          37.400

 125221439.788 7  97394520.627 6                  23384223.172    23384222.676
                  23384227.633                          42.700          38.300

 109624355.319 7  85263474.340 7                  20500304.039    20500303.309
                  20500309.441                          44.700          46.800

 109861588.365 8  85606468.425 7                  20905949.242
  20905953.535    20905953.414                          49.500          47.300

 124897553.342 7  97322763.40844                  23767203.563
                  23767205.449                          42.500          27.200

 109496445.285 8  85163782.534 7                  20461983.820    20461983.090
                  20461988.164                          50.600          45.700

 19  6 12  0  0 45.0000000  0 17G02R05G15G13G29R06R11R19G26R12G25G12
                                R04R20G05G21R21
 121976106.258 7  95046335.82344                  23211265.570
                  23211268.395                          44.300          29.300

 107320480.786 8  83471505.579 7                  20076514.391    20076513.777
                  20076518.617                          51.000          47.300

 125797599.186 7  98024138.109 6                  23938483.820
  23938489.695    23938489.809                          46.600          41.300

 123943848.097 7  96579638.92343                  23585721.570
                  23585726.387                          42.200          20.400

 106836311.024 8  83249032.691 8                  20330245.250
  20330249.895    20330250.008                          49.100          50.200

 109395118.659 7                                  20500599.547    20500597.879
                                                        44.600

 122070837.767 7  94944040.317 6                  22843896.961    22843896.230
                  22843902.949                          43.400          39.400

 130727753.318 5 101677186.097 4                  24438181.219    24438179.199
                  24438184.508                          30.500          27.500

 128579330.325 6 100191740.894 6                  24467837.492
  24467844.480    24467844.828                          40.600          38.900

 123562237.614 6                                  23131116.148    23131115.770
                                                        41.100

 118663154.453 7  92464836.200 7                  22580842.680
  22580849.727    22580849.371                          46.100          44.700

 126535755.339 7  98599321.345 6                  24078953.250
  24078957.543    24078957.832                          43.300          36.700

 125241139.432 7  97409842.564 6                  23387903.227    23387901.559
                  23387906.633                          42.300          37.800

 109630297.325 7  85268095.899 7                  20501415.078    20501414.699
                  20501420.598                          44.100          47.000

 109870966.345 8  85613775.941 7                  20907733.555
  20907737.906    20907737.785                          48.700          47.000

 124887407.548 7  97314857.57644                  23765271.891
                  23765274.598                          42.300          25.800

 109486396.133 8  85155966.525 7                  20460106.539    20460104.637
                  20460109.945                          50.800          45.700

 19  6 12  0  0 50.0000000  0 17G02R05G15G13G29R06R11R19G26R12G25G12
                                R04R20G05G21R21
 121986225.470 7  95054220.91444                  23213191.938
                  23213194.059                          43.800          27.300

 107326476.081 8  83476168.580 7                  20077635.422    20077635.281
                  20077640.238                          50.600          46.600

 125779933.719 7  98010372.837 6                  23935120.977
  23935127.496    23935127.844                          45.800          40.800

 123930176.423 7  96568985.67043                  23583119.438
                  23583124.430                          42.400          20.100

 106830915.243 8  83244828.184 8                  20329218.313
  20329223.074    20329223.305                          48.800          49.400

 109378818.567 7                                  20497543.688    20497542.488
                                                        43.700

 122083120.221 7  94953593.317 6                  22846195.781    22846196.344
                  22846202.473                          44.100          40.600

 130742727.276 5 101688832.505 3                  24440983.719    24440979.586
                  24440984.309                          30.500          23.600

 128568526.659 6 100183322.445 6                  24465781.898
  24465788.184    24465788.414                          40.000          38.300

 123562830.496 6                                  23131227.766    23131226.801
                                                        40.900

 118676818.142 7  92475483.219 7                  22583442.602
  22583449.707    22583449.527                          44.700          44.700

 126554550.616 7  98613967.002 6                  24082530.016
  24082533.957    24082534.129                          43.600          37.200

 125260847.210 7  97425170.837 6                  23391583.906    23391582.707
                  23391587.664                          42.100          38.400

 109636248.242 7  85272724.388 7                  20502527.859    20502526.895
                  20502532.910                          44.800          46.400

 109880356.650 8  85621093.051 7                  20909520.859
  20909524.801    20909524.797                          49.300          47.000

 124877264.054 7  97306953.58044                  23763343.453
                  23763344.227                          43.600          26.500

 109476352.412 8  85148154.740 7                  20458228.492    20458227.527
                  20458233.188                          50.200          45.400

 19  6 12  0  0 55.0000000  0 17G02R05G15G13G29R06R11R19G26R12G25G12
                                R04R20G05G21R21
 121996347.010 7  95062107.83944                  23215118.000
                  23215119.652                          43.400          28.000

 107332493.155 8  83480848.537 7                  20078759.664    20078760.461
                  20078765.652                          50.500          46.800

 125762269.545 7  97996608.536 6                  23931759.555
  23931766.602    23931766.832                          45.300          40.600

 123916511.204 7  96558337.44143                  23580519.266
                  23580524.492                          43.000          19.900

 106825531.155 8  83240632.786 8                  20328194.250
  20328198.777    20328198.656                          49.000          49.500

 109362533.586 7                                  20494492.602    20494491.285
                                                        44.100

 122095416.192 7  94963156.836 6                  22848497.188    22848496.457
                  22848502.590                          44.300          40.900

 130757705.005 4 101700481.858 4                  24443781.977    24443778.313
                  24443783.504                          28.900          24.200

 128557735.059 6 100174913.415 6                  24463728.289
  24463734.809    24463735.332                          40.200          38.500

 123563443.708 6                                  23131341.219    23131342.484
                                                        41.100

 118690491.443 7  92486137.740 7                  22586043.625
  22586051.434    22586051.313                          44.500          44.100

 126573346.659 7  98628613.278 6                  24086106.023
  24086110.902    24086111.074                          43.000          37.300

 125280562.992 7  97440505.307 6                  23395264.555    23395263.941
                  23395269.250                          42.000          38.400

 109642208.257 7  85277359.963 7                  20503643.148    20503642.301
                  20503648.316                          44.700          46.800

 109889759.350 8  85628419.828 7                  20911310.156
  20911314.215    20911313.977                          48.800          46.600

 124867123.037 6  97299051.49544                  23761411.219
                  23761414.102                          41.300          25.500

 109466314.309 8  85140347.322 7                  20456352.539    20456351.457
                  20456356.766                          49.900          45.700

 19  6 12  0  1  0.0000000  0 16G02R05G15G13G29R06R11G26R12G25G12R04
                                R20G05G21R21
 122006470.974 7  95069996.64544                  23217043.305
                  23217045.602                          43.300          27.000

 107338532.032 8  83485545.441 7                  20079890.109    20079890.320
                  20079895.629                          50.500          46.600

 125744606.720 7  97982845.318 6                  23928398.555
  23928405.543    23928405.773                          45.100          40.400

 123902852.487 7  96547694.30843                  23577920.586
                  23577925.285                          42.800          20.400

 106820158.777 8  83236446.521 8                  20327172.188
  20327175.836    20327175.949                          49.700          49.100

 109346263.627 7                                  20491443.969    20491441.832
                                                        44.200

 122107725.947 7  94972731.108 6                  22850800.719    22850801.516
                  22850806.824                          44.700          40.800

 128546955.562 6 100166513.817 6                  24461676.148
  24461683.488    24461683.777                          38.700          37.900

 123564077.481 6                                  23131460.609    23131460.938
                                                        41.000

 118704174.435 7  92496799.811 7                  22588646.969
  22588655.480    22588655.477                          45.400          43.900

 126592143.533 7  98643260.189 6                  24089683.625
  24089687.625    24089687.621                          43.000          37.100

 125300286.903 7  97455846.140 6                  23398945.477    23398946.508
                  23398952.285                          42.000          38.700

 109648177.530 7  85282002.730 7                  20504760.055    20504758.270
                  20504764.398                          44.700          46.400

 109899174.585 8  85635756.372 7                  20913101.750
  20913106.043    20913105.922                          49.100          47.600

 124856984.435 6  97291151.29944                  23759481.359
                  23759485.180                          41.600          26.100

 109456281.777 8  85132544.258 7                  20454477.891    20454476.926
                  20454482.352                          50.300          45.400

 19  6 12  0  1  5.0000000  0 17G02R05G15G13G29R06R11R19G26R12G25G12
                                R04R20G05G21R21
 122016597.118 7  95077887.12944                  23218971.031
                  23218972.098                          43.200          28.000

 107344592.562 8  83490259.179 7                  20081023.586    20081023.680
                  20081028.988                          50.000          46.700

 125726945.039 7  97969082.999 6                  23925037.664
  23925043.480    23925044.414                          45.700          39.200

 123889200.101 7  96537056.10043                  23575322.906
                  23575327.547                          43.700          20.400

 106814797.960 8  83232269.257 8                  20326152.461
  20326155.934    20326156.105                          49.800          49.400

 109330008.721 7                                  20488397.078    20488395.410
                                                        43.800

 122120049.236 7  94982315.881 6                  22853107.156    22853106.426
                  22853112.676                          44.700          39.900

 130787671.72014 101723789.25014                  24449380.945    24449380.449
                  24449386.582                          28.300          26.800

 128536187.961 6 100158123.453 6                  24459626.164
  24459633.445    24459634.613                          37.400          38.300

 123564731.490 6                                  23131582.336    23131581.723
                                                        40.700

 118717866.865 7  92507469.236 7                  22591252.625
  22591260.785    22591260.781                          45.100          44.300

 126610941.029 7  98657907.577 6                  24093259.641
  24093265.867    24093265.277                          42.700          36.900

 125320018.844 6  97471193.192 6                  23402629.031    23402631.703
                  23402637.602                          41.400          38.600

 109654155.804 7  85286652.498 7                  20505877.547    20505877.051
                  20505883.301                          44.400          46.400

 109908602.068 8  85643102.459 7                  20914896.227
  20914899.523    20914899.695                          48.300          47.200

 124846848.202 6  97283252.96544                  23757554.031
                  23757556.387                          41.200          27.500

 109446254.721 8  85124745.438 7                  20452603.367    20452602.871
                  20452608.418                          49.900          46.100

 19  6 12  0  1 10.0000000  0 17G02R05G15G13G29R06R11R19G26R12G25G12
                                R04R20G05G21R21
 122026725.666 7  95085779.51144                  23220899.203
                  23220899.918                          43.600          28.900

 107350674.805 8  83494989.819 7                  20082161.359    20082161.805
                  20082167.348                          50.200          47.100

 125709284.769 7  97955321.729 6                  23921677.313
  23921683.480    23921683.711                          45.200          40.300

 123875554.243 7  96526422.95943                  23572726.703
                  23572730.934                          43.400          21.100

 106809448.919 8  83228101.167 8                  20325134.430
  20325138.078    20325138.309                          49.900          49.500

 109313768.792 7                                  20485353.578    20485352.262
                                                        44.000

 122132386.047 7  94991911.156 6                  22855416.297    22855415.684
                  22855420.641                          45.000          39.800

 130802660.57814 101735447.297 4                  24452184.750    24452182.262
                  24452188.625                          28.600          27.200

 128525432.426 6 100149742.544 6                  24457579.242
  24457586.641    24457587.574                          37.300          38.300

 123565405.940 6                                  23131710.109    23131708.324
                                                        40.400

 118731568.935 7  92518146.185 7                  22593859.617
  22593867.836    22593867.773                          45.700          44.600

 126629739.381 7  98672555.642 6                  24096835.992
  24096842.395    24096842.098                          42.500          37.400

 125339758.928 6  97486546.563 6                  23406317.930    23406318.375
                  23406323.918                          41.500          38.700

 109660143.184 7  85291309.360 7                  20506996.422    20506995.105
                  20507001.117                          44.600          46.300

 109918042.041 8  85650458.288 7                  20916693.297
  20916696.125    20916696.355                          49.300          47.300

 124836714.380 6  97275356.47944                  23755622.961
                  23755628.305                          40.500          25.800

 109436233.292 8  85116950.992 7                  20450730.953    20450730.105
                  20450735.770                          49.900          45.900

 19  6 12  0  1 15.0000000  0 16G02R05G15G13G29R06R11G26R12G25G12R04
                                R20G05G21R21
 122036856.523 7  95093673.68744                  23222826.938
                  23222828.180                          42.300          27.600

 107356778.761 8  83499737.333 7                  20083303.242    20083303.453
                  20083309.113                          49.800          46.400

 125691625.752 7  97941561.509 6                  23918317.414
  23918323.230    23918323.402                          46.100          39.900

 123861914.832 7  96515794.84143                  23570131.195
                  23570135.309                          44.200          21.100

 106804111.490 8  83223942.124 8                  20324118.805
  20324121.867    20324121.980                          50.400          49.300

 109297543.909 7                                  20482314.914    20482312.426
                                                        43.900

 122144736.431 7  95001517.004 6                  22857727.109    22857726.613
                  22857732.277                          44.500          40.400

 128514688.963 6 100141371.061 5                  24455536.133
  24455541.715    24455543.586                          38.300          35.800

 123566100.673 6                                  23131837.875    23131838.320
                                                        40.200

 118745280.570 7  92528830.575 7                  22596468.992
  22596477.680    22596477.441                          45.600          44.900

 126648538.420 7  98687204.223 6                  24100414.352
  24100420.051    24100419.754                          42.600          38.100

 125359506.935 6  97501906.100 6                  23410006.430    23410006.168
                  23410011.480                          41.500          38.700

 109666139.611 7  85295973.233 7                  20508118.000    20508116.684
                  20508122.578                          44.800          46.600

 109927494.415 8  85657823.774 7                  20918491.289
  20918495.172    20918495.344                          48.900          46.600

 124826582.947 6  97267461.88144                  23753695.789
                  23753700.664                          41.000          24.200

 109426217.386 8  85109160.854 7                  20448859.578    20448857.910
                  20448863.688                          49.600          45.700

 19  6 12  0  1 20.0000000  0 16G02R05G15G13G29R06R11G26R12G25G12R04
                                R20G05G21R21
 122046989.725 7  95101569.67344                  23224755.820
                  23224756.301                          44.000          29.400

 107362904.349 8  83504501.692 7                  20084449.352    20084449.680
                  20084455.105                          50.300          46.900

 125673968.082 7  97927802.280 6                  23914956.336
  23914963.910    23914963.672                          45.500          40.600

 123848281.909 7  96505171.78443                  23567536.773
                  23567541.121                          43.900          21.800

 106798785.724 8  83219792.183 8                  20323105.109
  20323108.934    20323108.988                          49.700          49.500

 109281334.354 7                                  20479276.594    20479274.223
                                                        44.200

 122157100.283 7  95011133.353 6                  22860042.273    22860040.840
                  22860045.680                          44.100          39.600

 128503957.517 6 100133008.865 6                  24453493.023
  24453499.250    24453501.648                          37.400          36.000

 123566815.821 6                                  23131972.219    23131972.781
                                                        39.800

 118759001.702 7  92539522.363 7                  22599080.227
  22599088.973    22599088.441                          45.000          44.900

 126667338.199 7  98701853.392 6                  24103992.078
  24103997.250    24103997.305                          42.800          37.700

 125379263.065 6  97517271.950 6                  23413697.383    23413695.832
                  23413700.789                          41.800          39.000

 109672145.213 7  85300644.245 7                  20509241.539    20509241.516
                  20509247.176                          44.600          47.000

 109936959.169 8  85665198.907 7                  20920291.711
  20920296.180    20920296.117                          48.600          46.800

 124816453.874 6  97259569.09643                  23751767.844
                  23751772.836                          40.100          23.400

 109416207.101 8  85101375.073 7                  20446989.836    20446987.816
                  20446993.359                          50.200          45.700

 19  6 12  0  1 25.0000000  0 16G02R05G15G13G29R06R11G26R12G25G12R04
                                R20G05G21R21
 122057125.186 7  95109467.44544                  23226684.820
                  23226685.887                          43.100          29.600

 107369051.598 8  83509282.875 7                  20085599.625    20085599.363
                  20085604.441                          50.200          46.200

 125656311.674 7  97914044.047 6                  23911596.781
  23911602.891    23911602.945                          45.600          39.600

 123834655.424 7  96494553.77143                  23564944.266
                  23564948.730                          44.700          21.700

 106793471.602 8  83215651.314 8                  20322094.453
  20322097.926    20322098.039                          50.200          49.700

 109265139.740 7                                  20476241.539    20476240.223
                                                        44.500

 122169477.648 7  95020760.189 6                  22862357.203    22862356.941
                  22862362.020                          44.000          39.700

 128493238.121 6 100124656.060 6                  24451452.328
  24451459.668    24451461.480                          36.900          37.300

 123567551.267 6                                  23132108.516    23132109.781
                                                        39.500

 118772732.291 7  92550221.518 7                  22601692.891
  22601702.516    22601701.984                          45.500          45.300

 126686138.629 7  98716503.078 6                  24107568.945
  24107575.055    24107574.816                          42.500          38.200

 125399027.033 7  97532643.920 6                  23417387.930    23417386.379
                  23417391.570                          42.000          38.700

 109678159.683 7  85305322.183 7                  20510367.234    20510365.801
                  20510371.695                          44.600          46.000

 109946436.191 8  85672583.603 7                  20922094.891
  20922100.238    20922099.941                          48.700          47.300

 124806327.127 6  97251678.15043                  23749840.414
                  23749845.875                          40.000          23.200

 109406202.316 8  85093593.576 7                  20445120.055    20445118.387
                  20445123.695                          50.300          45.400

 19  6 12  0  1 30.0000000  0 16G02R05G15G13G29R06R11G26R12G25G12R04
                                R20G05G21R21
 122067263.098 7  95117367.10445                  23228614.617
                  23228614.980                          43.900          30.400

 107375220.706 8  83514081.066 7                  20086753.867    20086753.727
                  20086759.035                          50.900          46.300

 125638656.778 7  97900287.006 6                  23908238.078
  23908243.719    23908243.715                          46.300          39.900

 123821035.575 7  96483940.88043                  23562352.844
                  23562356.898                          45.000          22.300

 106788169.309 8  83211519.659 8                  20321084.953
  20321088.836    20321088.598                          50.100          49.800

 109248960.325 7                                  20473209.477    20473207.340
                                                        44.300

 122181868.624 7  95030397.577 6                  22864676.758    22864674.973
                  22864680.516                          44.100          40.300

 128482530.829 5 100116312.743 6                  24449415.016
  24449422.238    24449423.875                          35.400          36.900

 123568307.256 6                                  23132251.523    23132251.500
                                                        39.700

 118786472.540 7  92560928.195 7                  22604307.102
  22604317.020    22604316.957                          44.800          45.300

 126704939.909 7  98731153.397 6                  24111147.242
  24111153.234    24111153.055                          42.800          39.200

 125418798.934 7  97548022.054 6                  23421079.461    23421078.496
                  23421083.570                          42.300          38.400

 109684183.593 7  85310007.430 7                  20511493.000    20511492.387
                  20511498.168                          45.000          46.500

 109955925.656 8  85679977.982 7                  20923900.875
  20923905.402    20923905.457                          49.300          47.200

 124796202.914 6  97243789.15944                  23747915.539
                  23747918.480                          40.600          24.600

 109396203.283 8  85085816.556 7                  20443251.102    20443249.902
                  20443255.211                          50.000          45.700

 19  6 12  0  1 35.0000000  0 16G02R05G15G13G29R06R11G26R12G25G12R04
                                R20G05G21R21
 122077403.342 7  95125268.59245                  23230543.836
                  23230544.258                          45.100          30.500

 107381411.389 8  83518896.056 7                  20087912.328    20087911.598
                  20087916.672                          50.800          46.600

 125621003.168 7  97886530.944 6                  23904878.469
  23904883.641    23904883.754                          46.400          38.800

 123807422.204 7  96473333.05143                  23559761.977
                  23559766.207                          44.600          21.800

 106782878.698 8  83207397.112 8                  20320078.672
  20320081.324    20320081.789                          51.000          49.600

 109232795.988 7                                  20470180.008    20470178.340
                                                        44.500

 122194273.041 7  95040045.460 6                  22866996.805    22866995.957
                  22867001.973                          44.100          40.600

 128471835.662 6 100107978.868 6                  24447380.133
  24447386.418    24447388.055                          36.200          36.800

 123569083.535 6                                  23132396.781    23132396.051
                                                        39.700

 118800222.246 7  92571642.241 7                  22606924.391
  22606933.254    22606933.484                          44.900          45.200

 126723741.807 7  98745804.229 6                  24114725.195
  24114730.660    24114730.891                          43.100          38.300

 125438578.729 6  97563406.334 6                  23424773.617    23424773.238
                  23424777.844                          41.800          38.700

 109690216.560 7  85314699.754 7                  20512620.617    20512619.301
                  20512625.551                          44.600          46.700

 109965427.449 8  85687381.977 7                  20925708.711
  20925713.063    20925713.234                          49.500          47.500

 124786080.986 6  97235901.95543                  23745989.367
                  23745992.953                          40.700          22.500

 109386209.775 8  85078043.840 7                  20441383.992    20441381.973
                  20441387.164                          50.300          45.700

 19  6 12  0  1 40.0000000  0 16G02R05G15G13G29R06R11G26R12G25G12R04
                                R20G05G21R21
 122087545.821 7  95133171.81444                  23232473.555
                  23232473.977                          43.900          29.500

 107387623.739 8  83523727.884 7                  20089073.852    20089073.590
                  20089078.668                          51.100          47.100

 125603350.872 7  97872775.903 6                  23901518.922
  23901525.207    23901524.969                          46.400          39.200

 123793815.340 7  96462730.30143                  23557172.758
                  23557177.398                          45.400          22.200

 106777599.766 8  83203283.658 8                  20319074.500
  20319077.035    20319077.441                          51.200          49.200

 109216646.986 7                                  20467154.852    20467152.246
                                                        44.700

 122206690.886 7  95049703.763 6                  22869319.234    22869319.914
                  22869325.926                          43.400          41.300

 128461152.561 6 100099654.371 6                  24445348.211
  24445353.734    24445355.547                          37.000          37.500

 123569880.142 6                                  23132545.063    23132545.273
                                                        38.700

 118813981.416 7  92582363.655 7                  22609543.203
  22609551.070    22609551.652                          45.200          45.000

 126742544.451 7  98760455.644 6                  24118303.281
  24118309.098    24118309.328                          42.800          39.200

 125458366.524 7  97578796.814 6                  23428468.617    23428468.355
                  23428472.609                          42.800          38.200

 109696258.603 7  85319399.109 7                  20513749.813    20513749.551
                  20513756.152                          44.600          46.200

 109974941.488 8  85694795.518 7                  20927519.438
  20927524.551    20927524.781                          48.800          47.300

 124775961.433 6  97228016.59143                  23744063.680
                  23744066.797                          40.500          23.000

 109376221.909 8  85070275.489 7                  20439517.211    20439515.660
                  20439520.383                          50.500          45.800

 19  6 12  0  1 45.0000000  0 16G02R05G15G13G29R06R11G26R12G25G12R04
                                R20G05G21R21
 122097690.696 7  95141076.91344                  23234403.930
                  23234404.586                          43.600          29.600

 107393857.753 8  83528576.561 7                  20090239.500    20090240.063
                  20090245.254                          50.500          46.700

 125585700.019 7  97859022.012 6                  23898160.367
  23898165.891    23898166.355                          46.000          39.200

 123780215.056 7  96452132.68943                  23554584.750
                  23554589.332                          45.200          22.500

 106772332.659 8  83199179.422 8                  20318072.141
  20318075.145    20318075.316                          50.400          49.300

 109200513.030 7                                  20464130.695    20464128.676
                                                        44.300

 122219122.202 7  95059372.541 6                  22871646.406    22871646.266
                  22871652.746                          43.500          41.200

 128450481.543 6 100091339.294 6                  24443318.070
  24443324.531    24443325.758                          38.000          38.800

 123570697.129 6                                  23132695.984    23132697.133
                                                        38.300

 118827750.083 7  92593092.481 7                  22612164.398
  22612170.684    22612171.383                          45.800          44.400

 126761347.810 7  98775107.596 6                  24121881.273
  24121887.266    24121887.496                          42.400          40.000

 125478162.125 7  97594193.422 6                  23432165.781    23432164.934
                  23432169.422                          43.200          38.100

 109702309.859 7  85324105.635 7                  20514882.039    20514881.309
                  20514887.676                          44.900          46.200

 109984467.918 8  85702218.709 7                  20929331.828
  20929337.059    20929336.938                          48.800          47.500

 124765844.354 6  97220133.15844                  23742137.930
                  23742141.105                          41.900          24.300

 109366239.717 8  85062511.567 7                  20437651.742    20437650.543
                  20437654.680                          50.300          46.300

 19  6 12  0  1 50.0000000  0 16G02R05G15G13G29R06R11G26R12G25G12R04
                                R20G05G21R21
 122107837.869 7  95148983.79944                  23236335.500
                  23236335.980                          43.300          29.000

 107400113.401 8  83533442.066 7                  20091410.516    20091410.492
                  20091415.801                          50.000          46.500

 125568050.549 7  97845269.174 6                  23894802.297
  23894807.469    23894807.406                          45.200          38.800

 123766621.287 7  96441540.14543                  23551998.164
                  23552002.805                          45.200          22.900

 106767077.215 8  83195084.271 8                  20317071.945
  20317075.008    20317075.238                          50.700          49.500

 109184394.287 7                                  20461109.898    20461107.762
                                                        43.900

 122231566.920 7  95069051.744 6                  22873974.703    22873974.441
                  22873981.746                          43.100          41.100

 128439822.650 6 100083033.692 6                  24441289.945
  24441295.703    24441296.871                          37.900          38.800

